mm;SiteID;climatologico;SiteName;SiteCode;FullSiteCode;Latitude;Longitude;Elevation;cod_rete;comune;provincia;County;nome_rete;cod_reg
3;6686;6.935983102918587;S. VALENTINO ALLA M;160080;160080;46.75;10.533;1461;11;CURON VENOSTA;BOLZANO;TRENTINO-ALTO ADIGE;Sinottica;4
3;6690;15.860122358175751;BOLZANO;160200;160200;46.467;11.333;241;11;BOLZANO;BOLZANO;TRENTINO-ALTO ADIGE;Sinottica;4
3;6691;1.568125960061444;PASSO ROLLE;160210;160210;46.3;11.783;2006;11;SIROR;TRENTO;TRENTINO-ALTO ADIGE;Sinottica;4
3;6692;0.06004141776184786;PAGANELLA;160220;160220;46.15;11.033;2129;11;FAI DELLA PAGANELLA;TRENTO;TRENTINO-ALTO ADIGE;Sinottica;4
3;6693;7.6366129032258065;DOBBIACO;160330;160330;46.733;12.217;1226;11;DOBBIACO;BOLZANO;TRENTINO-ALTO ADIGE;Sinottica;4
3;6694;13.712928250219685;AVIANO;160360;160360;46.033;12.6;128;11;AVIANO;PORDENONE;FRIULI-VENEZIA GIULIA;NA;6
3;6697;9.039110852963793;TARVISIO;160400;160400;46.5;13.583;778;11;TARVISIO;UDINE;FRIULI-VENEZIA GIULIA;Sinottica;6
3;6700;14.209525301323184;UDINE/RIVOLTO;160450;160450;45.983;13.033;53;11;CODROIPO;UDINE;FRIULI-VENEZIA GIULIA;NA;6
3;6703;-7.4338264738598445;PIAN ROSA;160520;160520;45.933;7.7;3488;11;VALTOURNENCHE;AOSTA;VALLE D'AOSTA;Sinottica;2
3;6707;14.50978494623656;TORINO/CASELLE;160590;160590;45.217;7.65;287;11;SAN MAURIZIO CANAVESE;TORINO;PIEMONTE;Sinottica;1
3;6709;11.393139784946237;TORINO/BRIC DELLA C;160610;160610;45.033;7.733;710;11;PECETTO TORINESE;TORINO;PIEMONTE;Sinottica;1
3;6710;14.467721476118632;NOVARA/CAMERI;160640;160640;45.517;8.667;169;11;CAMERI;NOVARA;PIEMONTE;Sinottica;1
3;6711;14.743440860215054;MILANO/MALPENSA;160660;160660;45.617;8.733;211;11;FERNO;VARESE;LOMBARDIA;Sinottica;3
3;6717;14.334623655913978;BERGAMO/ORIO AL SER;160760;160760;45.667;9.7;237;11;ORIO AL SERIO;BERGAMO;LOMBARDIA;Sinottica;3
3;6718;15.568172043010753;MILANO/LINATE;160800;160800;45.433;9.283;103;11;PESCHIERA BORROMEO;MILANO;LOMBARDIA;Sinottica;3
3;6720;14.29369660945257;PIACENZA;160840;160840;44.917;9.733;138;11;SAN GIORGIO PIACENTINO;PIACENZA;EMILIA-ROMAGNA;Sinottica;8
3;6721;14.7778914247666;BRESCIA/GHEDI;160880;160880;45.417;10.283;97;11;GHEDI;BRESCIA;LOMBARDIA;Sinottica;3
3;6723;14.543548387096774;VERONA/VILLAFRANCA;160900;160900;45.383;10.867;68;11;VILLAFRANCA DI VERONA;VERONA;VENETO;Sinottica;5
3;6729;14.688724014336918;TREVISO/ISTRANA;160980;160980;45.683;12.1;46;11;ISTRANA;TREVISO;VENETO;Sinottica;5
3;6730;14.746799283154122;TREVISO/S. ANGELO;160990;160990;45.65;12.183;23;11;QUINTO DI TREVISO;TREVISO;VENETO;Sinottica;5
3;6733;13.42268817204301;VENEZIA/TESSERA;161050;161050;45.5;12.333;6;11;VENEZIA;VENEZIA;VENETO;Sinottica;5
3;6735;14.477849462365592;RONCHI DEI LEGIONAR;161080;161080;45.817;13.483;12;11;RONCHI DEI LEGIONARI;GORIZIA;FRIULI-VENEZIA GIULIA;Sinottica;6
3;6736;13.471799283154121;TRIESTE;161100;161100;45.65;13.75;20;11;TRIESTE;TRIESTE;FRIULI-VENEZIA GIULIA;Sinottica;6
3;6739;12.634003796872685;MONDOVI;161140;161140;44.383;7.817;560;11;MONDOVI';CUNEO;PIEMONTE;Sinottica;1
3;6744;10.65665551035826;PASSO DEI GIOVI;161190;161190;44.633;8.933;475;11;ISOLA DEL CANTONE;GENOVA;LIGURIA;Sinottica;7
3;6747;15.303450747744407;ALBENGA;161220;161220;44.05;8.117;49;11;ORTOVERO;SAVONA;LIGURIA;Sinottica;7
3;6749;6.408815143545502;PASSO DELLA CISA;161240;161240;44.433;9.933;1040;11;PONTREMOLI;MASSA CARRARA;TOSCANA;Sinottica;9
3;6750;14.846029391866399;SARZANA/LUNI;161250;161250;44.083;9.983;10;11;SARZANA;LA SPEZIA;LIGURIA;NA;7
3;6758;0.6151310980454473;MONTE CIMONE;161340;161340;44.2;10.7;2173;11;RIOLUNATO;MODENA;EMILIA-ROMAGNA;Sinottica;8
3;6762;15.442784286816119;FERRARA;161380;161380;44.833;11.617;10;11;FERRARA;FERRARA;EMILIA-ROMAGNA;Sinottica;8
3;6763;15.169569892473119;BOLOGNA/BORGO PANIG;161400;161400;44.533;11.3;49;11;BOLOGNA;BOLOGNA;EMILIA-ROMAGNA;Sinottica;8
3;6766;13.480618824239452;PUNTA MARINA;161460;161460;44.45;12.3;6;11;RAVENNA;RAVENNA;EMILIA-ROMAGNA;Sinottica;8
3;6768;14.221127443190847;CERVIA;161480;161480;44.217;12.3;10;11;CESENA;FORLI-CESENA;EMILIA-ROMAGNA;Sinottica;8
3;6769;13.665455595380326;RIMINI;161490;161490;44.033;12.617;13;11;RIMINI;RIMINI;EMILIA-ROMAGNA;Sinottica;8
3;6771;14.807631541218639;CAPO MELE;161530;161530;43.95;8.167;221;11;LAIGUEGLIA;SAVONA;LIGURIA;Sinottica;7
3;6773;15.566486281053022;PISA/S. GIUSTO;161580;161580;43.683;10.383;6;11;PISA;PISA;TOSCANA;Sinottica;9
3;6776;12.358746755654431;MONTE ARGENTARIO;161680;161680;42.383;11.167;631;11;MONTE ARGENTARIO;GROSSETO;TOSCANA;Sinottica;9
3;6777;16.29947670250896;FIRENZE/PERETOLA;161700;161700;43.8;11.2;38;11;FIRENZE;FIRENZE;TOSCANA;Sinottica;9
3;6779;14.899283154121864;AREZZO;161720;161720;43.467;11.85;249;11;AREZZO;AREZZO;TOSCANA;Sinottica;9
3;6782;12.009432703003338;FRONTONE;161790;161790;43.517;12.733;574;11;FRONTONE;PESARO E URBINO;MARCHE;Sinottica;11
3;6784;14.847387096774193;PERUGIA;161810;161810;43.083;12.5;205;11;BASTIA;PERUGIA;UMBRIA;Sinottica;10
3;6787;14.388172043010753;FALCONARA;161910;161910;43.617;13.367;10;11;FALCONARA MARITTIMA;ANCONA;MARCHE;Sinottica;11
3;6790;12.763493686513709;M. CALAMITA;161970;161970;42.733;10.4;397;11;CAPOLIVERI;LIVORNO;TOSCANA;Sinottica;9
3;6793;10.644480134566768;RADICOFANI;162040;162040;42.9;11.767;828;11;RADICOFANI;SIENA;TOSCANA;Sinottica;9
3;6794;16.46762282878412;GROSSETO;162060;162060;42.75;11.067;7;11;GROSSETO;GROSSETO;TOSCANA;Sinottica;9
3;6795;15.40345355947284;CIVITAVECCHIA;162140;162140;42.033;11.833;4;11;CIVITAVECCHIA;ROMA;LAZIO;Sinottica;12
3;6797;14.662368348497381;VITERBO;162160;162160;42.433;12.05;308;11;VITERBO;VITERBO;LAZIO;Sinottica;12
3;6800;2.8144916827497473;MONTE TERMINILLO;162190;162190;42.467;12.983;1875;11;CANTALICE;RIETI;LAZIO;Sinottica;12
3;6801;14.542851453604142;RIETI;162210;162210;42.417;12.85;389;11;RIETI;RIETI;LAZIO;NA;12
3;6803;14.225201414269824;VIGNA DI VALLE;162240;162240;42.083;12.217;266;11;BRACCIANO;ROMA;LAZIO;Sinottica;12
3;6810;15.413612903225806;PESCARA;162300;162300;42.433;14.2;11;11;PESCARA;PESCARA;ABRUZZO;Sinottica;13
3;6812;14.892872574465455;TERMOLI;162320;162320;42;15;44;11;TERMOLI;CAMPOBASSO;MOLISE;Sinottica;14
3;6814;17.327218072991155;GUIDONIA;162340;162340;42;12.733;89;11;GUIDONIA MONTECELIO;ROMA;LAZIO;Sinottica;12
3;6815;16.95881879336829;ROMA/URBE;162350;162350;41.95;12.5;24;11;FIUMICINO;ROMA;LAZIO;Sinottica;12
3;6817;15.869796069707082;ROMA/CIAMPINO;162390;162390;41.783;12.583;105;11;FIUMICINO;ROMA;LAZIO;Sinottica;12
3;6819;16.118899641577062;ROMA FIUMICINO;162420;162420;41.8;12.233;3;11;FIUMICINO;ROMA;LAZIO;Sinottica;12
3;6820;16.43822618693446;LATINA;162430;162430;41.55;12.9;26;11;LATINA;LATINA;LAZIO;Sinottica;12
3;6821;15.780455728147656;FROSINONE;162440;162440;41.633;13.3;185;11;FROSINONE;FROSINONE;LAZIO;Sinottica;12
3;6822;15.710111111111111;PRATICA DI MARE;162450;162450;41.65;12.45;21;11;POMEZIA;ROMA;LAZIO;Sinottica;12
3;6826;11.213266362978265;CAMPOBASSO;162520;162520;41.567;14.65;807;11;CAMPOBASSO;CAMPOBASSO;MOLISE;Sinottica;14
3;6827;16.250712066905614;GRAZZANISE;162530;162530;41.05;14.067;10;11;CANCELLO ED ARNONE;CASERTA;CAMPANIA;Sinottica;15
3;6828;10.00406457739791;MONTE S. ANGELO;162580;162580;41.7;15.95;844;11;MONTE SANT'ANGELO;FOGGIA;PUGLIA;Sinottica;16
3;6834;16.083137814342376;AMENDOLA;162610;162610;41.533;15.717;60;11;SAN GIOVANNI ROTONDO;FOGGIA;PUGLIA;Sinottica;16
3;6836;7.6788666419478435;TREVICO;162630;162630;41.05;15.233;1093;11;TREVICO;AVELLINO;CAMPANIA;Sinottica;15
3;6839;15.724163440860215;BARI/PALESE MACCHIE;162700;162700;41.133;16.783;49;11;BARI;BARI;PUGLIA;Sinottica;16
3;6841;14.200730057663048;PONZA;162800;162800;40.917;12.95;185;11;PONZA;LATINA;LAZIO;Sinottica;12
3;6844;16.512013348164626;NAPOLI/CAPODICHINO;162890;162890;40.85;14.3;72;11;NAPOLI;NAPOLI;CAMPANIA;Sinottica;15
3;6847;16.769127894339817;CAPRI;162940;162940;40.55;14.2;161;11;ANACAPRI;NAPOLI;CAMPANIA;Sinottica;15
3;6850;15.687132104454685;CAPO PALINURO;163100;163100;40.017;15.283;185;11;CENTOLA;SALERNO;CAMPANIA;Sinottica;15
3;6851;13.778102088740576;GIOIA DEL COLLE;163120;163120;40.767;16.933;350;11;GIOIA DEL COLLE;BARI;PUGLIA;Sinottica;16
3;6853;10.190788490681944;LATRONICO;163160;163160;40.083;16.017;896;11;LATRONICO;POTENZA;BASILICATA;Sinottica;17
3;6856;15.746272401433691;BRINDISI;163200;163200;40.65;17.95;10;11;BRINDISI;BRINDISI;PUGLIA;Sinottica;16
3;6857;15.765008739869696;GROTTAGLIE;163240;163240;40.517;17.4;69;11;GROTTAGLIE;TARANTO;PUGLIA;Sinottica;16
3;6858;16.22192627824019;MARINA DI GINOSA;163250;163250;40.433;16.883;12;11;GINOSA;TARANTO;PUGLIA;Sinottica;16
3;6859;16.080826844642196;LECCE;163320;163320;40.233;18.15;61;11;GALATINA;LECCE;PUGLIA;Sinottica;16
3;6863;14.022725118999562;BONIFATI;163370;163370;39.583;15.883;485;11;BONIFATI;COSENZA;CALABRIA;Sinottica;18
3;6865;5.380996627646239;MONTE SCURO;163440;163440;39.333;16.4;1720;11;CELICO;COSENZA;CALABRIA;Sinottica;18
3;6867;14.973523454653929;CROTONE;163500;163500;39;17.067;161;11;ISOLA DI CAPO RIZZUTO;CROTONE;CALABRIA;Sinottica;18
3;6869;14.24356427776895;S. MARIA DI LEUCA;163600;163600;39.817;18.35;112;11;CASTRIGNANO DEL CAPO;LECCE;PUGLIA;Sinottica;16
3;6870;16.399462365591397;LAMEZIA TERME;163620;163620;38.9;16.25;15;11;LAMEZIA TERME;CATANZARO;CALABRIA;Sinottica;18
3;6874;15.481109198797741;USTICA;164000;164000;38.7;13.183;251;11;USTICA;PALERMO;SICILIA;Sinottica;19
3;6876;16.962243727598565;PALERMO/PUNTA RAISI;164050;164050;38.183;13.1;21;11;CINISI;PALERMO;SICILIA;Sinottica;19
3;6881;16.91841119762699;MESSINA;164200;164200;38.2;15.55;51;11;MESSINA;MESSINA;SICILIA;Sinottica;19
3;6882;17.28807048088859;REGGIO CALABRIA;164220;164220;38.067;15.65;21;11;REGGIO CALABRIA;REGGIO CALABRIA;CALABRIA;Sinottica;18
3;6883;17.05519610855095;TRAPANI/BIRGI;164290;164290;37.917;12.5;14;11;MARSALA;TRAPANI;SICILIA;Sinottica;19
3;6884;10.762796596644524;PRIZZI;164340;164340;37.717;13.433;1035;11;PRIZZI;PALERMO;SICILIA;Sinottica;19
3;6888;11.56811835245873;ENNA;164500;164500;37.567;14.283;965;11;ENNA;ENNA;SICILIA;Sinottica;19
3;6889;16.787453958225313;GELA;164530;164530;37.083;14.217;65;11;GELA;CALTANISSETTA;SICILIA;Sinottica;19
3;6891;18.62147465437788;CATANIA/SIGONELLA;164590;164590;37.4;14.917;22;11;LENTINI;SIRACUSA;SICILIA;Sinottica;19
3;6893;18.213978494623657;CATANIA/FONTANAROSS;164600;164600;37.467;15.05;17;11;CATANIA;CATANIA;SICILIA;Sinottica;19
3;6897;15.927964157706093;PANTELLERIA;164700;164700;36.817;11.967;170;11;PANTELLERIA;TRAPANI;SICILIA;Sinottica;19
3;6901;16.9631678270781;COZZO SPADARO;164800;164800;36.683;15.133;51;11;PORTOPALO DI CAPO PASSERO;SIRACUSA;SICILIA;Sinottica;19
3;6902;16.659852652270896;LAMPEDUSA;164900;164900;35.5;12.6;20;11;LAMPEDUSA E LINOSA;AGRIGENTO;SICILIA;Sinottica;19
3;6906;16.62741935483871;ALGHERO;165200;165200;40.633;8.283;40;11;ALGHERO;SASSARI;SARDEGNA;Sinottica;20
3;6907;14.771299084030266;CAPO CACCIA;165220;165220;40.567;8.167;204;11;ALGHERO;SASSARI;SARDEGNA;Sinottica;20
3;6910;16.787921146953405;OLBIA/COSTA SMERALD;165310;165310;40.9;9.517;13;11;OLBIA;SASSARI;SARDEGNA;Sinottica;20
3;6914;15.19609727147784;CAPO FRASCA;165390;165390;39.75;8.467;95;11;ARBUS;CAGLIARI;SARDEGNA;Sinottica;20
3;6919;17.770781362007167;DECIMOMANNU;165460;165460;39.35;8.967;28;11;VILLASOR;CAGLIARI;SARDEGNA;Sinottica;20
3;6922;16.658891278375147;CAPO BELLAVISTA;165500;165500;39.933;9.717;150;11;TORTOLI';NUORO;SARDEGNA;Sinottica;20
3;6923;17.42241379310345;CAGLIARI/ELMAS;165600;165600;39.25;9.067;5;11;ELMAS;CAGLIARI;SARDEGNA;Sinottica;20
3;6925;16.699803314879453;CAPO CARBONARA;165640;165640;39.1;9.517;118;11;VILLASIMIUS;CAGLIARI;SARDEGNA;Sinottica;20
