mm;SiteID;climatologico;SiteName;SiteCode;FullSiteCode;Latitude;Longitude;Elevation;cod_rete;comune;provincia;County;nome_rete;cod_reg
11;6686;6.08326354679803;S. VALENTINO ALLA M;160080;160080;46.75;10.533;1461;11;CURON VENOSTA;BOLZANO;TRENTINO-ALTO ADIGE;Sinottica;4
11;6690;11.496662561576354;BOLZANO;160200;160200;46.467;11.333;241;11;BOLZANO;BOLZANO;TRENTINO-ALTO ADIGE;Sinottica;4
11;6691;2.852305280925971;PASSO ROLLE;160210;160210;46.3;11.783;2006;11;SIROR;TRENTO;TRENTINO-ALTO ADIGE;Sinottica;4
11;6692;1.3333825944170772;PAGANELLA;160220;160220;46.15;11.033;2129;11;FAI DELLA PAGANELLA;TRENTO;TRENTINO-ALTO ADIGE;Sinottica;4
11;6693;5.642004862953139;DOBBIACO;160330;160330;46.733;12.217;1226;11;DOBBIACO;BOLZANO;TRENTINO-ALTO ADIGE;Sinottica;4
11;6694;12.939726017145755;AVIANO;160360;160360;46.033;12.6;128;11;AVIANO;PORDENONE;FRIULI-VENEZIA GIULIA;NA;6
11;6697;7.16424578295268;TARVISIO;160400;160400;46.5;13.583;778;11;TARVISIO;UDINE;FRIULI-VENEZIA GIULIA;Sinottica;6
11;6700;13.377111768790929;UDINE/RIVOLTO;160450;160450;45.983;13.033;53;11;CODROIPO;UDINE;FRIULI-VENEZIA GIULIA;NA;6
11;6703;-5.498701806239737;PIAN ROSA;160520;160520;45.933;7.7;3488;11;VALTOURNENCHE;AOSTA;VALLE D'AOSTA;Sinottica;2
11;6707;11.948557273087594;TORINO/CASELLE;160590;160590;45.217;7.65;287;11;SAN MAURIZIO CANAVESE;TORINO;PIEMONTE;Sinottica;1
11;6709;9.373243997381929;TORINO/BRIC DELLA C;160610;160610;45.033;7.733;710;11;PECETTO TORINESE;TORINO;PIEMONTE;Sinottica;1
11;6710;11.558306046420203;NOVARA/CAMERI;160640;160640;45.517;8.667;169;11;CAMERI;NOVARA;PIEMONTE;Sinottica;1
11;6711;12.156813317479191;MILANO/MALPENSA;160660;160660;45.617;8.733;211;11;FERNO;VARESE;LOMBARDIA;Sinottica;3
11;6717;12.309544193420532;BERGAMO/ORIO AL SER;160760;160760;45.667;9.7;237;11;ORIO AL SERIO;BERGAMO;LOMBARDIA;Sinottica;3
11;6718;12.393825094841741;MILANO/LINATE;160800;160800;45.433;9.283;103;11;PESCHIERA BORROMEO;MILANO;LOMBARDIA;Sinottica;3
11;6720;11.296571663148018;PIACENZA;160840;160840;44.917;9.733;138;11;SAN GIORGIO PIACENTINO;PIACENZA;EMILIA-ROMAGNA;Sinottica;8
11;6721;11.825687016185785;BRESCIA/GHEDI;160880;160880;45.417;10.283;97;11;GHEDI;BRESCIA;LOMBARDIA;Sinottica;3
11;6723;12.463029556650246;VERONA/VILLAFRANCA;160900;160900;45.383;10.867;68;11;VILLAFRANCA DI VERONA;VERONA;VENETO;Sinottica;5
11;6729;13.094470443349753;TREVISO/ISTRANA;160980;160980;45.683;12.1;46;11;ISTRANA;TREVISO;VENETO;Sinottica;5
11;6730;13.371941251596423;TREVISO/S. ANGELO;160990;160990;45.65;12.183;23;11;QUINTO DI TREVISO;TREVISO;VENETO;Sinottica;5
11;6733;13.061260404280619;VENEZIA/TESSERA;161050;161050;45.5;12.333;6;11;VENEZIA;VENEZIA;VENETO;Sinottica;5
11;6735;14.023195930770248;RONCHI DEI LEGIONAR;161080;161080;45.817;13.483;12;11;RONCHI DEI LEGIONARI;GORIZIA;FRIULI-VENEZIA GIULIA;Sinottica;6
11;6736;14.248898137138328;TRIESTE;161100;161100;45.65;13.75;20;11;TRIESTE;TRIESTE;FRIULI-VENEZIA GIULIA;Sinottica;6
11;6739;10.136741731175228;MONDOVI;161140;161140;44.383;7.817;560;11;MONDOVI';CUNEO;PIEMONTE;Sinottica;1
11;6744;9.670527419396878;PASSO DEI GIOVI;161190;161190;44.633;8.933;475;11;ISOLA DEL CANTONE;GENOVA;LIGURIA;Sinottica;7
11;6747;16.004279800439136;ALBENGA;161220;161220;44.05;8.117;49;11;ORTOVERO;SAVONA;LIGURIA;Sinottica;7
11;6749;6.692980550994344;PASSO DELLA CISA;161240;161240;44.433;9.933;1040;11;PONTREMOLI;MASSA CARRARA;TOSCANA;Sinottica;9
11;6750;15.598406593406594;SARZANA/LUNI;161250;161250;44.083;9.983;10;11;SARZANA;LA SPEZIA;LIGURIA;NA;7
11;6758;2.4551888341543515;MONTE CIMONE;161340;161340;44.2;10.7;2173;11;RIOLUNATO;MODENA;EMILIA-ROMAGNA;Sinottica;8
11;6762;12.77255043396669;FERRARA;161380;161380;44.833;11.617;10;11;FERRARA;FERRARA;EMILIA-ROMAGNA;Sinottica;8
11;6763;12.643658343242173;BOLOGNA/BORGO PANIG;161400;161400;44.533;11.3;49;11;BOLOGNA;BOLOGNA;EMILIA-ROMAGNA;Sinottica;8
11;6766;13.310448717948718;PUNTA MARINA;161460;161460;44.45;12.3;6;11;RAVENNA;RAVENNA;EMILIA-ROMAGNA;Sinottica;8
11;6768;13.219791400595998;CERVIA;161480;161480;44.217;12.3;10;11;CESENA;FORLI-CESENA;EMILIA-ROMAGNA;Sinottica;8
11;6769;14.046062227506935;RIMINI;161490;161490;44.033;12.617;13;11;RIMINI;RIMINI;EMILIA-ROMAGNA;Sinottica;8
11;6771;16.051603790581197;CAPO MELE;161530;161530;43.95;8.167;221;11;LAIGUEGLIA;SAVONA;LIGURIA;Sinottica;7
11;6773;15.956440658034;PISA/S. GIUSTO;161580;161580;43.683;10.383;6;11;PISA;PISA;TOSCANA;Sinottica;9
11;6776;13.182280557334066;MONTE ARGENTARIO;161680;161680;42.383;11.167;631;11;MONTE ARGENTARIO;GROSSETO;TOSCANA;Sinottica;9
11;6777;15.689664861056063;FIRENZE/PERETOLA;161700;161700;43.8;11.2;38;11;FIRENZE;FIRENZE;TOSCANA;Sinottica;9
11;6779;13.923345223939753;AREZZO;161720;161720;43.467;11.85;249;11;AREZZO;AREZZO;TOSCANA;Sinottica;9
11;6782;11.608314573120962;FRONTONE;161790;161790;43.517;12.733;574;11;FRONTONE;PESARO E URBINO;MARCHE;Sinottica;11
11;6784;14.100602457391993;PERUGIA;161810;161810;43.083;12.5;205;11;BASTIA;PERUGIA;UMBRIA;Sinottica;10
11;6787;14.927415774871186;FALCONARA;161910;161910;43.617;13.367;10;11;FALCONARA MARITTIMA;ANCONA;MARCHE;Sinottica;11
11;6790;14.190477634024433;M. CALAMITA;161970;161970;42.733;10.4;397;11;CAPOLIVERI;LIVORNO;TOSCANA;Sinottica;9
11;6793;10.937499130434782;RADICOFANI;162040;162040;42.9;11.767;828;11;RADICOFANI;SIENA;TOSCANA;Sinottica;9
11;6794;17.116749900911614;GROSSETO;162060;162060;42.75;11.067;7;11;GROSSETO;GROSSETO;TOSCANA;Sinottica;9
11;6795;18.06777011140937;CIVITAVECCHIA;162140;162140;42.033;11.833;4;11;CIVITAVECCHIA;ROMA;LAZIO;Sinottica;12
11;6797;15.001995073891626;VITERBO;162160;162160;42.433;12.05;308;11;VITERBO;VITERBO;LAZIO;Sinottica;12
11;6800;4.828711920263644;MONTE TERMINILLO;162190;162190;42.467;12.983;1875;11;CANTALICE;RIETI;LAZIO;Sinottica;12
11;6801;14.035180623973726;RIETI;162210;162210;42.417;12.85;389;11;RIETI;RIETI;LAZIO;NA;12
11;6803;15.134576415495955;VIGNA DI VALLE;162240;162240;42.083;12.217;266;11;BRACCIANO;ROMA;LAZIO;Sinottica;12
11;6810;16.865893777249305;PESCARA;162300;162300;42.433;14.2;11;11;PESCARA;PESCARA;ABRUZZO;Sinottica;13
11;6812;17.133941762452107;TERMOLI;162320;162320;42;15;44;11;TERMOLI;CAMPOBASSO;MOLISE;Sinottica;14
11;6814;17.791503094606544;GUIDONIA;162340;162340;42;12.733;89;11;GUIDONIA MONTECELIO;ROMA;LAZIO;Sinottica;12
11;6815;17.611166432090076;ROMA/URBE;162350;162350;41.95;12.5;24;11;FIUMICINO;ROMA;LAZIO;Sinottica;12
11;6817;16.865598210746843;ROMA/CIAMPINO;162390;162390;41.783;12.583;105;11;FIUMICINO;ROMA;LAZIO;Sinottica;12
11;6819;17.884633372968686;ROMA FIUMICINO;162420;162420;41.8;12.233;3;11;FIUMICINO;ROMA;LAZIO;Sinottica;12
11;6820;18.077153054561936;LATINA;162430;162430;41.55;12.9;26;11;LATINA;LATINA;LAZIO;Sinottica;12
11;6821;15.942366356504287;FROSINONE;162440;162440;41.633;13.3;185;11;FROSINONE;FROSINONE;LAZIO;Sinottica;12
11;6822;17.83513504331578;PRATICA DI MARE;162450;162450;41.65;12.45;21;11;POMEZIA;ROMA;LAZIO;Sinottica;12
11;6826;12.230344827586206;CAMPOBASSO;162520;162520;41.567;14.65;807;11;CAMPOBASSO;CAMPOBASSO;MOLISE;Sinottica;14
11;6827;18.08020610384463;GRAZZANISE;162530;162530;41.05;14.067;10;11;CANCELLO ED ARNONE;CASERTA;CAMPANIA;Sinottica;15
11;6828;11.599461145495628;MONTE S. ANGELO;162580;162580;41.7;15.95;844;11;MONTE SANT'ANGELO;FOGGIA;PUGLIA;Sinottica;16
11;6834;17.066308764560844;AMENDOLA;162610;162610;41.533;15.717;60;11;SAN GIOVANNI ROTONDO;FOGGIA;PUGLIA;Sinottica;16
11;6836;9.498934689743251;TREVICO;162630;162630;41.05;15.233;1093;11;TREVICO;AVELLINO;CAMPANIA;Sinottica;15
11;6839;17.642342449464923;BARI/PALESE MACCHIE;162700;162700;41.133;16.783;49;11;BARI;BARI;PUGLIA;Sinottica;16
11;6841;16.972337164750957;PONZA;162800;162800;40.917;12.95;185;11;PONZA;LATINA;LAZIO;Sinottica;12
11;6844;18.468969774372074;NAPOLI/CAPODICHINO;162890;162890;40.85;14.3;72;11;NAPOLI;NAPOLI;CAMPANIA;Sinottica;15
11;6847;18.334420866489832;CAPRI;162940;162940;40.55;14.2;161;11;ANACAPRI;NAPOLI;CAMPANIA;Sinottica;15
11;6850;18.3704895700298;CAPO PALINURO;163100;163100;40.017;15.283;185;11;CENTOLA;SALERNO;CAMPANIA;Sinottica;15
11;6851;15.36687673404677;GIOIA DEL COLLE;163120;163120;40.767;16.933;350;11;GIOIA DEL COLLE;BARI;PUGLIA;Sinottica;16
11;6853;12.020804043247393;LATRONICO;163160;163160;40.083;16.017;896;11;LATRONICO;POTENZA;BASILICATA;Sinottica;17
11;6856;18.096531906460562;BRINDISI;163200;163200;40.65;17.95;10;11;BRINDISI;BRINDISI;PUGLIA;Sinottica;16
11;6857;17.734547629183645;GROTTAGLIE;163240;163240;40.517;17.4;69;11;GROTTAGLIE;TARANTO;PUGLIA;Sinottica;16
11;6858;18.306860879904875;MARINA DI GINOSA;163250;163250;40.433;16.883;12;11;GINOSA;TARANTO;PUGLIA;Sinottica;16
11;6859;18.189813713832738;LECCE;163320;163320;40.233;18.15;61;11;GALATINA;LECCE;PUGLIA;Sinottica;16
11;6863;16.3387227304715;BONIFATI;163370;163370;39.583;15.883;485;11;BONIFATI;COSENZA;CALABRIA;Sinottica;18
11;6865;7.6469275679620505;MONTE SCURO;163440;163440;39.333;16.4;1720;11;CELICO;COSENZA;CALABRIA;Sinottica;18
11;6867;17.368927530536727;CROTONE;163500;163500;39;17.067;161;11;ISOLA DI CAPO RIZZUTO;CROTONE;CALABRIA;Sinottica;18
11;6869;17.377689258818865;S. MARIA DI LEUCA;163600;163600;39.817;18.35;112;11;CASTRIGNANO DEL CAPO;LECCE;PUGLIA;Sinottica;16
11;6870;19.357086801426874;LAMEZIA TERME;163620;163620;38.9;16.25;15;11;LAMEZIA TERME;CATANZARO;CALABRIA;Sinottica;18
11;6874;18.863619248369545;USTICA;164000;164000;38.7;13.183;251;11;USTICA;PALERMO;SICILIA;Sinottica;19
11;6876;20.205258290395033;PALERMO/PUNTA RAISI;164050;164050;38.183;13.1;21;11;CINISI;PALERMO;SICILIA;Sinottica;19
11;6881;19.82559056678557;MESSINA;164200;164200;38.2;15.55;51;11;MESSINA;MESSINA;SICILIA;Sinottica;19
11;6882;20.300095124851367;REGGIO CALABRIA;164220;164220;38.067;15.65;21;11;REGGIO CALABRIA;REGGIO CALABRIA;CALABRIA;Sinottica;18
11;6883;19.975055575660445;TRAPANI/BIRGI;164290;164290;37.917;12.5;14;11;MARSALA;TRAPANI;SICILIA;Sinottica;19
11;6884;12.902695371890774;PRIZZI;164340;164340;37.717;13.433;1035;11;PRIZZI;PALERMO;SICILIA;Sinottica;19
11;6888;13.968841716525427;ENNA;164500;164500;37.567;14.283;965;11;ENNA;ENNA;SICILIA;Sinottica;19
11;6889;20.23265626034719;GELA;164530;164530;37.083;14.217;65;11;GELA;CALTANISSETTA;SICILIA;Sinottica;19
11;6891;20.907575564069816;CATANIA/SIGONELLA;164590;164590;37.4;14.917;22;11;LENTINI;SIRACUSA;SICILIA;Sinottica;19
11;6893;20.688577090764962;CATANIA/FONTANAROSS;164600;164600;37.467;15.05;17;11;CATANIA;CATANIA;SICILIA;Sinottica;19
11;6897;18.916486042692938;PANTELLERIA;164700;164700;36.817;11.967;170;11;PANTELLERIA;TRAPANI;SICILIA;Sinottica;19
11;6901;20.341658343242173;COZZO SPADARO;164800;164800;36.683;15.133;51;11;PORTOPALO DI CAPO PASSERO;SIRACUSA;SICILIA;Sinottica;19
11;6902;20.731003427804854;LAMPEDUSA;164900;164900;35.5;12.6;20;11;LAMPEDUSA E LINOSA;AGRIGENTO;SICILIA;Sinottica;19
11;6906;18.659114370018056;ALGHERO;165200;165200;40.633;8.283;40;11;ALGHERO;SASSARI;SARDEGNA;Sinottica;20
11;6907;17.358497027348395;CAPO CACCIA;165220;165220;40.567;8.167;204;11;ALGHERO;SASSARI;SARDEGNA;Sinottica;20
11;6910;18.384031198686372;OLBIA/COSTA SMERALD;165310;165310;40.9;9.517;13;11;OLBIA;SASSARI;SARDEGNA;Sinottica;20
11;6914;17.90950837389187;CAPO FRASCA;165390;165390;39.75;8.467;95;11;ARBUS;CAGLIARI;SARDEGNA;Sinottica;20
11;6919;19.218391370817056;DECIMOMANNU;165460;165460;39.35;8.967;28;11;VILLASOR;CAGLIARI;SARDEGNA;Sinottica;20
11;6922;18.395445287966098;CAPO BELLAVISTA;165500;165500;39.933;9.717;150;11;TORTOLI';NUORO;SARDEGNA;Sinottica;20
11;6923;19.139194269860145;CAGLIARI/ELMAS;165600;165600;39.25;9.067;5;11;ELMAS;CAGLIARI;SARDEGNA;Sinottica;20
11;6925;19.482584079944367;CAPO CARBONARA;165640;165640;39.1;9.517;118;11;VILLASIMIUS;CAGLIARI;SARDEGNA;Sinottica;20
