mm;SiteID;climatologico;SiteName;SiteCode;FullSiteCode;Latitude;Longitude;Elevation;cod_rete;comune;provincia;County;nome_rete;cod_reg
1;6686;18.409642857142856;S. VALENTINO ALLA M;160080;160080;46.75;10.533;1461;11;CURON VENOSTA;BOLZANO;TRENTINO-ALTO ADIGE;Sinottica;4
1;6709;22.886666666666667;TORINO/BRIC DELLA C;160610;160610;45.033;7.733;710;11;PECETTO TORINESE;TORINO;PIEMONTE;Sinottica;1
1;6718;41.76444444444444;MILANO/LINATE;160800;160800;45.433;9.283;103;11;PESCHIERA BORROMEO;MILANO;LOMBARDIA;Sinottica;3
1;6720;49.32928571428572;PIACENZA;160840;160840;44.917;9.733;138;11;SAN GIORGIO PIACENTINO;PIACENZA;EMILIA-ROMAGNA;Sinottica;8
1;6721;53.0828;BRESCIA/GHEDI;160880;160880;45.417;10.283;97;11;GHEDI;BRESCIA;LOMBARDIA;Sinottica;3
1;6723;39.3104;VERONA/VILLAFRANCA;160900;160900;45.383;10.867;68;11;VILLAFRANCA DI VERONA;VERONA;VENETO;Sinottica;5
1;6729;45.63241379310345;TREVISO/ISTRANA;160980;160980;45.683;12.1;46;11;ISTRANA;TREVISO;VENETO;Sinottica;5
1;6730;45.377931034482756;TREVISO/S. ANGELO;160990;160990;45.65;12.183;23;11;QUINTO DI TREVISO;TREVISO;VENETO;Sinottica;5
1;6733;47.41269230769231;VENEZIA/TESSERA;161050;161050;45.5;12.333;6;11;VENEZIA;VENEZIA;VENETO;Sinottica;5
1;6735;48.30916666666666;RONCHI DEI LEGIONAR;161080;161080;45.817;13.483;12;11;RONCHI DEI LEGIONARI;GORIZIA;FRIULI-VENEZIA GIULIA;Sinottica;6
1;6736;52.04821428571429;TRIESTE;161100;161100;45.65;13.75;20;11;TRIESTE;TRIESTE;FRIULI-VENEZIA GIULIA;Sinottica;6
1;6758;57.342083333333335;MONTE CIMONE;161340;161340;44.2;10.7;2173;11;RIOLUNATO;MODENA;EMILIA-ROMAGNA;Sinottica;8
1;6769;40.21689655172414;RIMINI;161490;161490;44.033;12.617;13;11;RIMINI;RIMINI;EMILIA-ROMAGNA;Sinottica;8
1;6771;59.434285714285714;CAPO MELE;161530;161530;43.95;8.167;221;11;LAIGUEGLIA;SAVONA;LIGURIA;Sinottica;7
1;6773;69.28964285714285;PISA/S. GIUSTO;161580;161580;43.683;10.383;6;11;PISA;PISA;TOSCANA;Sinottica;9
1;6776;58.2575;MONTE ARGENTARIO;161680;161680;42.383;11.167;631;11;MONTE ARGENTARIO;GROSSETO;TOSCANA;Sinottica;9
1;6779;52.93827586206896;AREZZO;161720;161720;43.467;11.85;249;11;AREZZO;AREZZO;TOSCANA;Sinottica;9
1;6782;67.4962962962963;FRONTONE;161790;161790;43.517;12.733;574;11;FRONTONE;PESARO E URBINO;MARCHE;Sinottica;11
1;6794;44.71;GROSSETO;162060;162060;42.75;11.067;7;11;GROSSETO;GROSSETO;TOSCANA;Sinottica;9
1;6797;52.90071428571429;VITERBO;162160;162160;42.433;12.05;308;11;VITERBO;VITERBO;LAZIO;Sinottica;12
1;6803;67.01925925925926;VIGNA DI VALLE;162240;162240;42.083;12.217;266;11;BRACCIANO;ROMA;LAZIO;Sinottica;12
1;6812;31.696785714285713;TERMOLI;162320;162320;42;15;44;11;TERMOLI;CAMPOBASSO;MOLISE;Sinottica;14
1;6821;93.6375;FROSINONE;162440;162440;41.633;13.3;185;11;FROSINONE;FROSINONE;LAZIO;Sinottica;12
1;6822;68.18576923076922;PRATICA DI MARE;162450;162450;41.65;12.45;21;11;POMEZIA;ROMA;LAZIO;Sinottica;12
1;6826;62.858275862068965;CAMPOBASSO;162520;162520;41.567;14.65;807;11;CAMPOBASSO;CAMPOBASSO;MOLISE;Sinottica;14
1;6827;85.94214285714285;GRAZZANISE;162530;162530;41.05;14.067;10;11;CANCELLO ED ARNONE;CASERTA;CAMPANIA;Sinottica;15
1;6828;41.512;MONTE S. ANGELO;162580;162580;41.7;15.95;844;11;MONTE SANT'ANGELO;FOGGIA;PUGLIA;Sinottica;16
1;6836;54.761153846153846;TREVICO;162630;162630;41.05;15.233;1093;11;TREVICO;AVELLINO;CAMPANIA;Sinottica;15
1;6841;64.80730769230769;PONZA;162800;162800;40.917;12.95;185;11;PONZA;LATINA;LAZIO;Sinottica;12
1;6851;60.81307692307692;GIOIA DEL COLLE;163120;163120;40.767;16.933;350;11;GIOIA DEL COLLE;BARI;PUGLIA;Sinottica;16
1;6856;65.87538461538462;BRINDISI;163200;163200;40.65;17.95;10;11;BRINDISI;BRINDISI;PUGLIA;Sinottica;16
1;6858;42.315357142857145;MARINA DI GINOSA;163250;163250;40.433;16.883;12;11;GINOSA;TARANTO;PUGLIA;Sinottica;16
1;6859;61.16703703703704;LECCE;163320;163320;40.233;18.15;61;11;GALATINA;LECCE;PUGLIA;Sinottica;16
1;6865;128.32777777777778;MONTE SCURO;163440;163440;39.333;16.4;1720;11;CELICO;COSENZA;CALABRIA;Sinottica;18
1;6869;64.13285714285715;S. MARIA DI LEUCA;163600;163600;39.817;18.35;112;11;CASTRIGNANO DEL CAPO;LECCE;PUGLIA;Sinottica;16
1;6874;61.84166666666667;USTICA;164000;164000;38.7;13.183;251;11;USTICA;PALERMO;SICILIA;Sinottica;19
1;6881;115.50206896551724;MESSINA;164200;164200;38.2;15.55;51;11;MESSINA;MESSINA;SICILIA;Sinottica;19
1;6883;61.329655172413794;TRAPANI/BIRGI;164290;164290;37.917;12.5;14;11;MARSALA;TRAPANI;SICILIA;Sinottica;19
1;6889;76.26291666666667;GELA;164530;164530;37.083;14.217;65;11;GELA;CALTANISSETTA;SICILIA;Sinottica;19
1;6891;66.88269230769231;CATANIA/SIGONELLA;164590;164590;37.4;14.917;22;11;LENTINI;SIRACUSA;SICILIA;Sinottica;19
1;6897;80.8764;PANTELLERIA;164700;164700;36.817;11.967;170;11;PANTELLERIA;TRAPANI;SICILIA;Sinottica;19
1;6901;82.20703703703704;COZZO SPADARO;164800;164800;36.683;15.133;51;11;PORTOPALO DI CAPO PASSERO;SIRACUSA;SICILIA;Sinottica;19
1;6907;41.73692307692308;CAPO CACCIA;165220;165220;40.567;8.167;204;11;ALGHERO;SASSARI;SARDEGNA;Sinottica;20
1;6919;47.0912;DECIMOMANNU;165460;165460;39.35;8.967;28;11;VILLASOR;CAGLIARI;SARDEGNA;Sinottica;20
1;6922;40.20461538461539;CAPO BELLAVISTA;165500;165500;39.933;9.717;150;11;TORTOLI';NUORO;SARDEGNA;Sinottica;20
1;6923;35.88423076923077;CAGLIARI/ELMAS;165600;165600;39.25;9.067;5;11;ELMAS;CAGLIARI;SARDEGNA;Sinottica;20
1;6925;24.528333333333332;CAPO CARBONARA;165640;165640;39.1;9.517;118;11;VILLASIMIUS;CAGLIARI;SARDEGNA;Sinottica;20
