mm;SiteID;climatologico;SiteName;SiteCode;FullSiteCode;Latitude;Longitude;Elevation;cod_rete;comune;provincia;County;nome_rete;cod_reg
8;6686;69.24178571428571;S. VALENTINO ALLA M;160080;160080;46.75;10.533;1461;11;CURON VENOSTA;BOLZANO;TRENTINO-ALTO ADIGE;Sinottica;4
8;6692;102.24080000000001;PAGANELLA;160220;160220;46.15;11.033;2129;11;FAI DELLA PAGANELLA;TRENTO;TRENTINO-ALTO ADIGE;Sinottica;4
8;6697;127.56583333333333;TARVISIO;160400;160400;46.5;13.583;778;11;TARVISIO;UDINE;FRIULI-VENEZIA GIULIA;Sinottica;6
8;6709;75.53464285714286;TORINO/BRIC DELLA C;160610;160610;45.033;7.733;710;11;PECETTO TORINESE;TORINO;PIEMONTE;Sinottica;1
8;6718;49.5512;MILANO/LINATE;160800;160800;45.433;9.283;103;11;PESCHIERA BORROMEO;MILANO;LOMBARDIA;Sinottica;3
8;6720;51.97666666666667;PIACENZA;160840;160840;44.917;9.733;138;11;SAN GIORGIO PIACENTINO;PIACENZA;EMILIA-ROMAGNA;Sinottica;8
8;6721;78.21791666666667;BRESCIA/GHEDI;160880;160880;45.417;10.283;97;11;GHEDI;BRESCIA;LOMBARDIA;Sinottica;3
8;6729;75.53592592592592;TREVISO/ISTRANA;160980;160980;45.683;12.1;46;11;ISTRANA;TREVISO;VENETO;Sinottica;5
8;6730;71.17653846153846;TREVISO/S. ANGELO;160990;160990;45.65;12.183;23;11;QUINTO DI TREVISO;TREVISO;VENETO;Sinottica;5
8;6736;72.4156;TRIESTE;161100;161100;45.65;13.75;20;11;TRIESTE;TRIESTE;FRIULI-VENEZIA GIULIA;Sinottica;6
8;6758;41.705416666666665;MONTE CIMONE;161340;161340;44.2;10.7;2173;11;RIOLUNATO;MODENA;EMILIA-ROMAGNA;Sinottica;8
8;6768;40.8688;CERVIA;161480;161480;44.217;12.3;10;11;CESENA;FORLI-CESENA;EMILIA-ROMAGNA;Sinottica;8
8;6769;48.95481481481482;RIMINI;161490;161490;44.033;12.617;13;11;RIMINI;RIMINI;EMILIA-ROMAGNA;Sinottica;8
8;6771;19.645925925925926;CAPO MELE;161530;161530;43.95;8.167;221;11;LAIGUEGLIA;SAVONA;LIGURIA;Sinottica;7
8;6773;39.865;PISA/S. GIUSTO;161580;161580;43.683;10.383;6;11;PISA;PISA;TOSCANA;Sinottica;9
8;6776;16.253846153846155;MONTE ARGENTARIO;161680;161680;42.383;11.167;631;11;MONTE ARGENTARIO;GROSSETO;TOSCANA;Sinottica;9
8;6779;43.785357142857144;AREZZO;161720;161720;43.467;11.85;249;11;AREZZO;AREZZO;TOSCANA;Sinottica;9
8;6782;58.50357142857143;FRONTONE;161790;161790;43.517;12.733;574;11;FRONTONE;PESARO E URBINO;MARCHE;Sinottica;11
8;6794;21.390384615384615;GROSSETO;162060;162060;42.75;11.067;7;11;GROSSETO;GROSSETO;TOSCANA;Sinottica;9
8;6797;44.53846153846154;VITERBO;162160;162160;42.433;12.05;308;11;VITERBO;VITERBO;LAZIO;Sinottica;12
8;6803;25.970769230769232;VIGNA DI VALLE;162240;162240;42.083;12.217;266;11;BRACCIANO;ROMA;LAZIO;Sinottica;12
8;6810;37.4768;PESCARA;162300;162300;42.433;14.2;11;11;PESCARA;PESCARA;ABRUZZO;Sinottica;13
8;6812;20.105714285714285;TERMOLI;162320;162320;42;15;44;11;TERMOLI;CAMPOBASSO;MOLISE;Sinottica;14
8;6819;21.04625;ROMA FIUMICINO;162420;162420;41.8;12.233;3;11;FIUMICINO;ROMA;LAZIO;Sinottica;12
8;6822;21.5712;PRATICA DI MARE;162450;162450;41.65;12.45;21;11;POMEZIA;ROMA;LAZIO;Sinottica;12
8;6826;42.303200000000004;CAMPOBASSO;162520;162520;41.567;14.65;807;11;CAMPOBASSO;CAMPOBASSO;MOLISE;Sinottica;14
8;6827;23.89814814814815;GRAZZANISE;162530;162530;41.05;14.067;10;11;CANCELLO ED ARNONE;CASERTA;CAMPANIA;Sinottica;15
8;6828;31.6512;MONTE S. ANGELO;162580;162580;41.7;15.95;844;11;MONTE SANT'ANGELO;FOGGIA;PUGLIA;Sinottica;16
8;6841;15.920740740740742;PONZA;162800;162800;40.917;12.95;185;11;PONZA;LATINA;LAZIO;Sinottica;12
8;6847;26.91653846153846;CAPRI;162940;162940;40.55;14.2;161;11;ANACAPRI;NAPOLI;CAMPANIA;Sinottica;15
8;6856;16.321666666666665;BRINDISI;163200;163200;40.65;17.95;10;11;BRINDISI;BRINDISI;PUGLIA;Sinottica;16
8;6858;18.884814814814813;MARINA DI GINOSA;163250;163250;40.433;16.883;12;11;GINOSA;TARANTO;PUGLIA;Sinottica;16
8;6859;29.375416666666666;LECCE;163320;163320;40.233;18.15;61;11;GALATINA;LECCE;PUGLIA;Sinottica;16
8;6865;33.091153846153844;MONTE SCURO;163440;163440;39.333;16.4;1720;11;CELICO;COSENZA;CALABRIA;Sinottica;18
8;6869;16.05107142857143;S. MARIA DI LEUCA;163600;163600;39.817;18.35;112;11;CASTRIGNANO DEL CAPO;LECCE;PUGLIA;Sinottica;16
8;6874;17.587037037037035;USTICA;164000;164000;38.7;13.183;251;11;USTICA;PALERMO;SICILIA;Sinottica;19
8;6876;18.495384615384616;PALERMO/PUNTA RAISI;164050;164050;38.183;13.1;21;11;CINISI;PALERMO;SICILIA;Sinottica;19
8;6881;27.63111111111111;MESSINA;164200;164200;38.2;15.55;51;11;MESSINA;MESSINA;SICILIA;Sinottica;19
8;6883;5.460357142857143;TRAPANI/BIRGI;164290;164290;37.917;12.5;14;11;MARSALA;TRAPANI;SICILIA;Sinottica;19
8;6888;27.88625;ENNA;164500;164500;37.567;14.283;965;11;ENNA;ENNA;SICILIA;Sinottica;19
8;6891;9.356666666666667;CATANIA/SIGONELLA;164590;164590;37.4;14.917;22;11;LENTINI;SIRACUSA;SICILIA;Sinottica;19
8;6897;7.531666666666666;PANTELLERIA;164700;164700;36.817;11.967;170;11;PANTELLERIA;TRAPANI;SICILIA;Sinottica;19
8;6901;13.774074074074074;COZZO SPADARO;164800;164800;36.683;15.133;51;11;PORTOPALO DI CAPO PASSERO;SIRACUSA;SICILIA;Sinottica;19
8;6907;7.468148148148148;CAPO CACCIA;165220;165220;40.567;8.167;204;11;ALGHERO;SASSARI;SARDEGNA;Sinottica;20
8;6919;10.04;DECIMOMANNU;165460;165460;39.35;8.967;28;11;VILLASOR;CAGLIARI;SARDEGNA;Sinottica;20
8;6922;14.585384615384616;CAPO BELLAVISTA;165500;165500;39.933;9.717;150;11;TORTOLI';NUORO;SARDEGNA;Sinottica;20
8;6925;9.246538461538462;CAPO CARBONARA;165640;165640;39.1;9.517;118;11;VILLASIMIUS;CAGLIARI;SARDEGNA;Sinottica;20
