mm;SiteID;climatologico;SiteName;SiteCode;FullSiteCode;Latitude;Longitude;Elevation;cod_rete;comune;provincia;County;nome_rete;cod_reg
5;6686;5.028840245775729;S. VALENTINO ALLA M;160080;160080;46.75;10.533;1461;11;CURON VENOSTA;BOLZANO;TRENTINO-ALTO ADIGE;Sinottica;4
5;6690;11.340185526540365;BOLZANO;160200;160200;46.467;11.333;241;11;BOLZANO;BOLZANO;TRENTINO-ALTO ADIGE;Sinottica;4
5;6691;2.0407131041002007;PASSO ROLLE;160210;160210;46.3;11.783;2006;11;SIROR;TRENTO;TRENTINO-ALTO ADIGE;Sinottica;4
5;6692;1.925776913002792;PAGANELLA;160220;160220;46.15;11.033;2129;11;FAI DELLA PAGANELLA;TRENTO;TRENTINO-ALTO ADIGE;Sinottica;4
5;6693;5.268307048984468;DOBBIACO;160330;160330;46.733;12.217;1226;11;DOBBIACO;BOLZANO;TRENTINO-ALTO ADIGE;Sinottica;4
5;6694;12.851256397689369;AVIANO;160360;160360;46.033;12.6;128;11;AVIANO;PORDENONE;FRIULI-VENEZIA GIULIA;NA;6
5;6697;7.499165309498348;TARVISIO;160400;160400;46.5;13.583;778;11;TARVISIO;UDINE;FRIULI-VENEZIA GIULIA;Sinottica;6
5;6700;12.44721288528887;UDINE/RIVOLTO;160450;160450;45.983;13.033;53;11;CODROIPO;UDINE;FRIULI-VENEZIA GIULIA;NA;6
5;6703;-6.480359246899847;PIAN ROSA;160520;160520;45.933;7.7;3488;11;VALTOURNENCHE;AOSTA;VALLE D'AOSTA;Sinottica;2
5;6707;11.53809514000467;TORINO/CASELLE;160590;160590;45.217;7.65;287;11;SAN MAURIZIO CANAVESE;TORINO;PIEMONTE;Sinottica;1
5;6709;11.649748554635465;TORINO/BRIC DELLA C;160610;160610;45.033;7.733;710;11;PECETTO TORINESE;TORINO;PIEMONTE;Sinottica;1
5;6710;11.346569161415351;NOVARA/CAMERI;160640;160640;45.517;8.667;169;11;CAMERI;NOVARA;PIEMONTE;Sinottica;1
5;6711;10.318347272003185;MILANO/MALPENSA;160660;160660;45.617;8.733;211;11;FERNO;VARESE;LOMBARDIA;Sinottica;3
5;6717;12.511379173018032;BERGAMO/ORIO AL SER;160760;160760;45.667;9.7;237;11;ORIO AL SERIO;BERGAMO;LOMBARDIA;Sinottica;3
5;6718;13.101338112305854;MILANO/LINATE;160800;160800;45.433;9.283;103;11;PESCHIERA BORROMEO;MILANO;LOMBARDIA;Sinottica;3
5;6720;11.227713920817369;PIACENZA;160840;160840;44.917;9.733;138;11;SAN GIORGIO PIACENTINO;PIACENZA;EMILIA-ROMAGNA;Sinottica;8
5;6721;12.444447328307172;BRESCIA/GHEDI;160880;160880;45.417;10.283;97;11;GHEDI;BRESCIA;LOMBARDIA;Sinottica;3
5;6723;12.592695587690026;VERONA/VILLAFRANCA;160900;160900;45.383;10.867;68;11;VILLAFRANCA DI VERONA;VERONA;VENETO;Sinottica;5
5;6729;12.85839088012744;TREVISO/ISTRANA;160980;160980;45.683;12.1;46;11;ISTRANA;TREVISO;VENETO;Sinottica;5
5;6730;13.12048663840123;TREVISO/S. ANGELO;160990;160990;45.65;12.183;23;11;QUINTO DI TREVISO;TREVISO;VENETO;Sinottica;5
5;6733;13.596240541616886;VENEZIA/TESSERA;161050;161050;45.5;12.333;6;11;VENEZIA;VENEZIA;VENETO;Sinottica;5
5;6735;11.606172839506172;RONCHI DEI LEGIONAR;161080;161080;45.817;13.483;12;11;RONCHI DEI LEGIONARI;GORIZIA;FRIULI-VENEZIA GIULIA;Sinottica;6
5;6736;14.870305455993627;TRIESTE;161100;161100;45.65;13.75;20;11;TRIESTE;TRIESTE;FRIULI-VENEZIA GIULIA;Sinottica;6
5;6739;12.294936290175444;MONDOVI;161140;161140;44.383;7.817;560;11;MONDOVI';CUNEO;PIEMONTE;Sinottica;1
5;6744;10.382210771194812;PASSO DEI GIOVI;161190;161190;44.633;8.933;475;11;ISOLA DEL CANTONE;GENOVA;LIGURIA;Sinottica;7
5;6747;14.026080418572075;ALBENGA;161220;161220;44.05;8.117;49;11;ORTOVERO;SAVONA;LIGURIA;Sinottica;7
5;6749;8.371435143595775;PASSO DELLA CISA;161240;161240;44.433;9.933;1040;11;PONTREMOLI;MASSA CARRARA;TOSCANA;Sinottica;9
5;6750;13.058385197598101;SARZANA/LUNI;161250;161250;44.083;9.983;10;11;SARZANA;LA SPEZIA;LIGURIA;NA;7
5;6758;2.835585624630934;MONTE CIMONE;161340;161340;44.2;10.7;2173;11;RIOLUNATO;MODENA;EMILIA-ROMAGNA;Sinottica;8
5;6762;13.495648141842326;FERRARA;161380;161380;44.833;11.617;10;11;FERRARA;FERRARA;EMILIA-ROMAGNA;Sinottica;8
5;6763;12.737835592359136;BOLOGNA/BORGO PANIG;161400;161400;44.533;11.3;49;11;BOLOGNA;BOLOGNA;EMILIA-ROMAGNA;Sinottica;8
5;6766;13.72505415646532;PUNTA MARINA;161460;161460;44.45;12.3;6;11;RAVENNA;RAVENNA;EMILIA-ROMAGNA;Sinottica;8
5;6768;11.4711877737953;CERVIA;161480;161480;44.217;12.3;10;11;CESENA;FORLI-CESENA;EMILIA-ROMAGNA;Sinottica;8
5;6769;12.114119474313023;RIMINI;161490;161490;44.033;12.617;13;11;RIMINI;RIMINI;EMILIA-ROMAGNA;Sinottica;8
5;6771;14.616231066067922;CAPO MELE;161530;161530;43.95;8.167;221;11;LAIGUEGLIA;SAVONA;LIGURIA;Sinottica;7
5;6773;11.464032713204757;PISA/S. GIUSTO;161580;161580;43.683;10.383;6;11;PISA;PISA;TOSCANA;Sinottica;9
5;6776;12.56293657905217;MONTE ARGENTARIO;161680;161680;42.383;11.167;631;11;MONTE ARGENTARIO;GROSSETO;TOSCANA;Sinottica;9
5;6777;12.276125049780964;FIRENZE/PERETOLA;161700;161700;43.8;11.2;38;11;FIRENZE;FIRENZE;TOSCANA;Sinottica;9
5;6779;9.570333182273856;AREZZO;161720;161720;43.467;11.85;249;11;AREZZO;AREZZO;TOSCANA;Sinottica;9
5;6782;12.290009956192751;FRONTONE;161790;161790;43.517;12.733;574;11;FRONTONE;PESARO E URBINO;MARCHE;Sinottica;11
5;6784;10.722301871764238;PERUGIA;161810;161810;43.083;12.5;205;11;BASTIA;PERUGIA;UMBRIA;Sinottica;10
5;6787;12.130889602988232;FALCONARA;161910;161910;43.617;13.367;10;11;FALCONARA MARITTIMA;ANCONA;MARCHE;Sinottica;11
5;6790;13.230205703279953;M. CALAMITA;161970;161970;42.733;10.4;397;11;CAPOLIVERI;LIVORNO;TOSCANA;Sinottica;9
5;6793;10.41441257881903;RADICOFANI;162040;162040;42.9;11.767;828;11;RADICOFANI;SIENA;TOSCANA;Sinottica;9
5;6794;11.16742015133413;GROSSETO;162060;162060;42.75;11.067;7;11;GROSSETO;GROSSETO;TOSCANA;Sinottica;9
5;6795;15.137440407983233;CIVITAVECCHIA;162140;162140;42.033;11.833;4;11;CIVITAVECCHIA;ROMA;LAZIO;Sinottica;12
5;6797;10.208028673835125;VITERBO;162160;162160;42.433;12.05;308;11;VITERBO;VITERBO;LAZIO;Sinottica;12
5;6800;4.49015289743761;MONTE TERMINILLO;162190;162190;42.467;12.983;1875;11;CANTALICE;RIETI;LAZIO;Sinottica;12
5;6801;15.242640015609982;RIETI;162210;162210;42.417;12.85;389;11;RIETI;RIETI;LAZIO;NA;12
5;6803;12.666329862889002;VIGNA DI VALLE;162240;162240;42.083;12.217;266;11;BRACCIANO;ROMA;LAZIO;Sinottica;12
5;6810;11.66373715651135;PESCARA;162300;162300;42.433;14.2;11;11;PESCARA;PESCARA;ABRUZZO;Sinottica;13
5;6812;16.12953001080958;TERMOLI;162320;162320;42;15;44;11;TERMOLI;CAMPOBASSO;MOLISE;Sinottica;14
5;6814;12.022448647385243;GUIDONIA;162340;162340;42;12.733;89;11;GUIDONIA MONTECELIO;ROMA;LAZIO;Sinottica;12
5;6815;13.417273803587639;ROMA/URBE;162350;162350;41.95;12.5;24;11;FIUMICINO;ROMA;LAZIO;Sinottica;12
5;6817;12.579761051373955;ROMA/CIAMPINO;162390;162390;41.783;12.583;105;11;FIUMICINO;ROMA;LAZIO;Sinottica;12
5;6819;11.87831939466348;ROMA FIUMICINO;162420;162420;41.8;12.233;3;11;FIUMICINO;ROMA;LAZIO;Sinottica;12
5;6820;12.37449241179611;LATINA;162430;162430;41.55;12.9;26;11;LATINA;LATINA;LAZIO;Sinottica;12
5;6821;10.930246446971552;FROSINONE;162440;162440;41.633;13.3;185;11;FROSINONE;FROSINONE;LAZIO;Sinottica;12
5;6822;12.841644763042613;PRATICA DI MARE;162450;162450;41.65;12.45;21;11;POMEZIA;ROMA;LAZIO;Sinottica;12
5;6826;11.224081242532856;CAMPOBASSO;162520;162520;41.567;14.65;807;11;CAMPOBASSO;CAMPOBASSO;MOLISE;Sinottica;14
5;6827;11.42225952998923;GRAZZANISE;162530;162530;41.05;14.067;10;11;CANCELLO ED ARNONE;CASERTA;CAMPANIA;Sinottica;15
5;6828;11.173167270359624;MONTE S. ANGELO;162580;162580;41.7;15.95;844;11;MONTE SANT'ANGELO;FOGGIA;PUGLIA;Sinottica;16
5;6834;11.991020354842982;AMENDOLA;162610;162610;41.533;15.717;60;11;SAN GIOVANNI ROTONDO;FOGGIA;PUGLIA;Sinottica;16
5;6836;8.874640760203263;TREVICO;162630;162630;41.05;15.233;1093;11;TREVICO;AVELLINO;CAMPANIA;Sinottica;15
5;6839;13.045754679410594;BARI/PALESE MACCHIE;162700;162700;41.133;16.783;49;11;BARI;BARI;PUGLIA;Sinottica;16
5;6841;15.612505252749969;PONZA;162800;162800;40.917;12.95;185;11;PONZA;LATINA;LAZIO;Sinottica;12
5;6844;14.051544926461501;NAPOLI/CAPODICHINO;162890;162890;40.85;14.3;72;11;NAPOLI;NAPOLI;CAMPANIA;Sinottica;15
5;6847;15.802029216512743;CAPRI;162940;162940;40.55;14.2;161;11;ANACAPRI;NAPOLI;CAMPANIA;Sinottica;15
5;6850;15.082958980485863;CAPO PALINURO;163100;163100;40.017;15.283;185;11;CENTOLA;SALERNO;CAMPANIA;Sinottica;15
5;6851;11.017314904077233;GIOIA DEL COLLE;163120;163120;40.767;16.933;350;11;GIOIA DEL COLLE;BARI;PUGLIA;Sinottica;16
5;6853;10.98669175374354;LATRONICO;163160;163160;40.083;16.017;896;11;LATRONICO;POTENZA;BASILICATA;Sinottica;17
5;6856;14.756566308243727;BRINDISI;163200;163200;40.65;17.95;10;11;BRINDISI;BRINDISI;PUGLIA;Sinottica;16
5;6857;18.33329987043637;GROTTAGLIE;163240;163240;40.517;17.4;69;11;GROTTAGLIE;TARANTO;PUGLIA;Sinottica;16
5;6858;14.141600102406555;MARINA DI GINOSA;163250;163250;40.433;16.883;12;11;GINOSA;TARANTO;PUGLIA;Sinottica;16
5;6859;12.342692154520112;LECCE;163320;163320;40.233;18.15;61;11;GALATINA;LECCE;PUGLIA;Sinottica;16
5;6863;13.835690232192233;BONIFATI;163370;163370;39.583;15.883;485;11;BONIFATI;COSENZA;CALABRIA;Sinottica;18
5;6865;6.5398557244675155;MONTE SCURO;163440;163440;39.333;16.4;1720;11;CELICO;COSENZA;CALABRIA;Sinottica;18
5;6867;15.63660031752932;CROTONE;163500;163500;39;17.067;161;11;ISOLA DI CAPO RIZZUTO;CROTONE;CALABRIA;Sinottica;18
5;6869;15.628275587415374;S. MARIA DI LEUCA;163600;163600;39.817;18.35;112;11;CASTRIGNANO DEL CAPO;LECCE;PUGLIA;Sinottica;16
5;6870;13.21231780167264;LAMEZIA TERME;163620;163620;38.9;16.25;15;11;LAMEZIA TERME;CATANZARO;CALABRIA;Sinottica;18
5;6874;15.393980613994078;USTICA;164000;164000;38.7;13.183;251;11;USTICA;PALERMO;SICILIA;Sinottica;19
5;6876;15.700318021395514;PALERMO/PUNTA RAISI;164050;164050;38.183;13.1;21;11;CINISI;PALERMO;SICILIA;Sinottica;19
5;6881;16.903496614894465;MESSINA;164200;164200;38.2;15.55;51;11;MESSINA;MESSINA;SICILIA;Sinottica;19
5;6882;16.224769585253455;REGGIO CALABRIA;164220;164220;38.067;15.65;21;11;REGGIO CALABRIA;REGGIO CALABRIA;CALABRIA;Sinottica;18
5;6883;13.827872752990292;TRAPANI/BIRGI;164290;164290;37.917;12.5;14;11;MARSALA;TRAPANI;SICILIA;Sinottica;19
5;6884;10.921887655355397;PRIZZI;164340;164340;37.717;13.433;1035;11;PRIZZI;PALERMO;SICILIA;Sinottica;19
5;6888;11.73021163901809;ENNA;164500;164500;37.567;14.283;965;11;ENNA;ENNA;SICILIA;Sinottica;19
5;6889;15.894308839514624;GELA;164530;164530;37.083;14.217;65;11;GELA;CALTANISSETTA;SICILIA;Sinottica;19
5;6891;12.273615292712067;CATANIA/SIGONELLA;164590;164590;37.4;14.917;22;11;LENTINI;SIRACUSA;SICILIA;Sinottica;19
5;6893;12.461148766118733;CATANIA/FONTANAROSS;164600;164600;37.467;15.05;17;11;CATANIA;CATANIA;SICILIA;Sinottica;19
5;6897;15.645218143616363;PANTELLERIA;164700;164700;36.817;11.967;170;11;PANTELLERIA;TRAPANI;SICILIA;Sinottica;19
5;6901;16.165452868915235;COZZO SPADARO;164800;164800;36.683;15.133;51;11;PORTOPALO DI CAPO PASSERO;SIRACUSA;SICILIA;Sinottica;19
5;6902;17.568831673551735;LAMPEDUSA;164900;164900;35.5;12.6;20;11;LAMPEDUSA E LINOSA;AGRIGENTO;SICILIA;Sinottica;19
5;6906;11.59768137436658;ALGHERO;165200;165200;40.633;8.283;40;11;ALGHERO;SASSARI;SARDEGNA;Sinottica;20
5;6907;14.845602150537635;CAPO CACCIA;165220;165220;40.567;8.167;204;11;ALGHERO;SASSARI;SARDEGNA;Sinottica;20
5;6910;11.905852181436163;OLBIA/COSTA SMERALD;165310;165310;40.9;9.517;13;11;OLBIA;SASSARI;SARDEGNA;Sinottica;20
5;6914;14.428900235248623;CAPO FRASCA;165390;165390;39.75;8.467;95;11;ARBUS;CAGLIARI;SARDEGNA;Sinottica;20
5;6919;12.23437687638217;DECIMOMANNU;165460;165460;39.35;8.967;28;11;VILLASOR;CAGLIARI;SARDEGNA;Sinottica;20
5;6922;14.718586789554532;CAPO BELLAVISTA;165500;165500;39.933;9.717;150;11;TORTOLI';NUORO;SARDEGNA;Sinottica;20
5;6923;13.302561301701086;CAGLIARI/ELMAS;165600;165600;39.25;9.067;5;11;ELMAS;CAGLIARI;SARDEGNA;Sinottica;20
5;6925;15.968982089197143;CAPO CARBONARA;165640;165640;39.1;9.517;118;11;VILLASIMIUS;CAGLIARI;SARDEGNA;Sinottica;20
